$GPGGA,183434.273,3155.826,N,03447.767,E,1,12,1.0,0.0,M,0.0,M,,*6D
$GPGSA,A,3,01,02,03,04,05,06,07,08,09,10,11,12,1.0,1.0,1.0*30
$GPRMC,183434.273,A,3155.826,N,03447.767,E,048.2,088.0,120226,000.0,W*72
$GPGGA,183435.273,3155.827,N,03447.782,E,1,12,1.0,0.0,M,0.0,M,,*66
$GPGSA,A,3,01,02,03,04,05,06,07,08,09,10,11,12,1.0,1.0,1.0*30
$GPRMC,183435.273,A,3155.827,N,03447.782,E,026.0,149.3,120226,000.0,W*7C
$GPGGA,183436.273,3155.820,N,03447.787,E,1,12,1.0,0.0,M,0.0,M,,*67
$GPGSA,A,3,01,02,03,04,05,06,07,08,09,10,11,12,1.0,1.0,1.0*30
$GPRMC,183436.273,A,3155.820,N,03447.787,E,042.1,096.7,120226,000.0,W*
$GPGGA,183437.273,3155.819,N,03447.800,E,1,12,1.0,0.0,M,0.0,M,,*6C
$GPGSA,A,3,01,02,03,04,05,06,07,08,09,10,11,12,1.0,1.0,1.0*30
$GPRMC,183437.273,A,3155.819,N,03447.800,E,027.8,135.7,120226,000.0,W*70
$GPGGA,183438.273,3155.813,N,03447.807,E,1,12,1.0,0.0,M,0.0,M,,*6E
$GPGSA,A,3,01,02,03,04,05,06,07,08,09,10,11,12,1.0,1.0,1.0*30
$GPRMC,183438.273,A,3155.813,N,03447.807,E,052.6,194.6,120226,000.0,W*74
$GPGGA,183439.273,3155.799,N,03447.802,E,1,12,1.0,0.0,M,0.0,M,,*67
$GPGSA,A,3,01,02,03,04,05,06,07,08,09,10,11,12,1.0,1.0,1.0*30
$GPRMC,183439.273,A,3155.799
$GPGGA,183440.273,3155.781,N,03447.796,E,1,12,1.0,0.0,M,0.0,M,,*62
$GPGSA,A,3,01,02,03,04,05,06,07,08,09,10,11,12,1.0,1.0,1.0*30
$GPRMC,183440.273,A,3155.781,N,03447.796,E,072.2,199.9,120226,000.0,W*7C
$GPGGA,183441.273,3155.762,N,03447.788,E,1,12,1.0,0.0,M,0.0,M,,*61
$GPGSA,A,3,01,02,03,04,05,06,07,08,09,10,11,12,1.0,1.0,1.0*30
$GPRMC,183441.273,A,3155.762,N,03447.788,E,072.2,000.0,120226,000.0,W*77
$GPGGA,183442.273,3155.762,N,03447.788,E,1,12,1.0,0.0,M,0.0,M,,*62
$GPGSA,A,3,01,02,03,04,05,06,07,08,09,10,11,12,1.0,1.0,1.0*30
$GPRMC,183442.273,A,3155.762,N,03447.788,E,057.9,252.2
$GPGGA,183443.273,3155.757,N,03447.769,E,1,12,1.0,0.0,M,0.0,M,,*6A
$GPGSA,A,3,01,02,03,04,05,06,07,08,09,10,11,12,1.0,1.0,1.0*30
$GPRMC,183443.273,A,3155.757,N,03447.769,E,088.7,273.2,120226,000.0,W*78
$GPGGA,183444.273,3155.759,N,03447.741,E,1,12,1.0,0.0,M,0.0,M,,*69
$GPGSA,A,3,01,02,03,04,05,06,07,08,09,10,11,12,1.0,1.0,1.0*30
$GPRMC,183444.273,A,3155.759,N,03447.741,E,088.6,269.4,120226,000.0,W*77
$GPGGA,183445.273,3155.758,N,03447.712,E,1,12,1.0,0.0,M,0.0,M,,*6F
$GPGSA,A,3,01,02,03,04,05,06,07,08,09,10,11,12,1.0,1.0,1.0*30
$GPRMC
$GPGGA,183446.273,3155.750,N,03447.684,E,1,12,1.0,0.0,M,0.0,M,,*6A
$GPGSA,A,3,01,02,03,04,05,06,07,08,09,10,11,12,1.0,1.0,1.0*30
$GPRMC,183446.273,A,3155.750,N,03447.684,E,085.8,242.0,120226,000.0,W*7A
$GPGGA,183447.273,3155.739,N,03447.659,E,1,12,1.0,0.0,M,0.0,M,,*64
$GPGSA,A,3,01,02,03,04,05,06,07,08,09,10,11,12,1.0,1.0,1.0*30
$GPRMC,183447.273,A,3155.739,N,03447.659,E,057.0,248.7,120226,000.0,W*7E
$GPGGA,183448.273,3155.733,N,03447.641,E,1,12,1.0,0.0,M,0.0,M,,*68
$GPGSA,A,3,01,02,03,04,05,06,07,08,09,10,11,12,1.0,1.0,1.0*30
$GPRMC,183448.273,A,3155.733,N,03447.641,E,090.0,280.1,120226
$GPGGA,183449.273,3155.738,N,03447.612,E,1,12,1.0,0.0,M,0.0,M,,*64
$GPGSA,A,3,01,02,03,04,05,06,07,08,09,10,11,12,1.0,1.0,1.0*30
$GPRMC,183449.273,A,3155.738,N,03447.612,E,071.6,322.8,120226,000.0,W*7E
$GPGGA,183450.273,3155.754,N,03447.598,E,1,12,1.0,0.0,M,0.0,M,,*67
$GPGSA,A,3,01,02,03,04,05,06,07,08,09,10,11,12,1.0,1.0,1.0*30
$GPRMC,183450.273,A,3155.754,N,03447.598,E,056.6,342.8,120226,000.0,W*7E
$GPGGA,183451.273,3155.769,N,03447.593,E,1,12,1.0,0.0,M,0.0,M,,*63
$GPGSA,A,3,01,02,03,04,05,06,07,08,09,10,11,12,1.0,1.0,1.0*30
$GPRMC,183451.273,A,3155.769,N,03447.593,E,063.6,352.0
$GPGGA,183452.273,3155.786,N,03447.590,E,1,12,1.0,0.0,M,0.0,M,,*62
$GPGSA,A,3,01,02,03,04,05,06,07,08,09,10,11,12,1.0,1.0,1.0*30
$GPRMC,183452.273,A,3155.786,N,03447.590,E,062.0,000.9,120226,000.0,W*7E
$GPGGA,183453.273,3155.803,N,03447.590,E,1,12,1.0,0.0,M,0.0,M,,*61
$GPGSA,A,3,01,02,03,04,05,06,07,08,09,10,11,12,1.0,1.0,1.0*30
$GPRMC,183453.273,A,3155.803,N,03447.590,E,052.2,358.9,120226,000.0,W*72
$GPGGA,183454.273,3155.818,N,03447.590,E,1,12,1.0,0.0,M,0.0,M,,*6C
$GPGSA,A,3,01,02,03,04,05,06,07,08,09,10,11,12,1.0,1.0,1.0*30
$GPRMC,183454.273,A,3155.818,N
$GPGGA,183455.273,3155.823,N,03447.565,E,1,12,1.0,0.0,M,0.0,M,,*6F
$GPGSA,A,3,01,02,03,04,05,06,07,08,09,10,11,12,1.0,1.0,1.0*30
$GPRMC,183455.273,A,3155.823,N,03447.565,E,073.8,279.2,120226,000.0,W*7C
$GPGGA,183456.273,3155.826,N,03447.542,E,1,12,1.0,0.0,M,0.0,M,,*6C
$GPGSA,A,3,01,02,03,04,05,06,07,08,09,10,11,12,1.0,1.0,1.0*30
$GPRMC,183456.273,A,3155.826,N,03447.542,E,068.9,279.9,120226,000.0,W*7F
$GPGGA,183457.273,3155.829,N,03447.519,E,1,12,1.0,0.0,M,0.0,M,,*6C
$GPGSA,A,3,01,02,03,04,05,06,07,08,09,10,11,12,1.0,1.0,1.0*30
$GPRMC,183457.273,A,3155.829,N,03447.519,E,068.9,279.9,120226,000.0,W*
